City_ID,City,Country,Date,Lat,Lng,Max Temp,Humidity,Cloudiness,Wind Speed,Current Description,Rain inches (last 3 hrs),Snow inches (last 3 hrs)
0,Rikitea,PF,2019-12-29 16:29:21,-23.12,-134.97,75.65,80,100,11.48,overcast clouds,0,0
1,Conakry,GN,2019-12-29 16:29:21,9.52,-13.7,87.8,62,0,11.41,haze,0,0
2,Mindelo,PT,2019-12-29 16:29:22,41.31,-8.72,63.0,55,0,0.96,clear sky,0,0
3,Comodoro Rivadavia,AR,2019-12-29 16:27:03,-45.87,-67.48,71.6,43,14,9.17,few clouds,0,0
4,Navahrudak,BY,2019-12-29 16:29:22,53.59,25.82,25.03,82,19,3.85,few clouds,0,0
5,Husavik,CA,2019-12-29 16:29:22,50.56,-96.99,12.0,92,100,5.99,overcast clouds,0,0
6,Busselton,AU,2019-12-29 16:29:22,-33.64,115.35,57.0,54,6,13.89,clear sky,0,0
7,Tasiilaq,GL,2019-12-29 16:29:23,65.61,-37.64,23.0,67,2,6.24,clear sky,0,0
8,Tuatapere,NZ,2019-12-29 16:29:23,-46.13,167.69,53.01,84,100,13.0,overcast clouds,0,0
9,Lagoa,PT,2019-12-29 16:26:24,37.14,-8.45,64.0,67,0,12.75,clear sky,0,0
10,Herat,AF,2019-12-29 16:29:23,34.35,62.22,42.8,56,86,3.36,overcast clouds,0,0
11,Ushuaia,AR,2019-12-29 16:29:23,-54.81,-68.31,51.8,53,40,32.21,scattered clouds,0,0
12,La Ronge,CA,2019-12-29 16:29:24,55.1,-105.3,3.2,84,40,8.05,scattered clouds,0,0
13,Mataura,NZ,2019-12-29 16:29:24,-46.19,168.86,53.01,84,84,13.0,broken clouds,0,0
14,Rawson,AR,2019-12-29 16:29:24,-43.3,-65.11,66.96,57,5,8.05,clear sky,0,0
15,Kiboga,UG,2019-12-29 16:29:24,0.92,31.77,79.56,51,0,3.89,clear sky,0,0
16,Punta Arenas,CL,2019-12-29 16:28:47,-53.16,-70.91,60.8,36,77,20.8,broken clouds,0,0
17,Konstantinovka,UA,2019-12-29 16:29:25,46.85,29.85,36.37,86,100,11.77,light snow,0,0.19
18,Albany,US,2019-12-29 16:28:28,42.65,-73.75,39.0,69,75,2.13,broken clouds,0,0
19,Narsaq,GL,2019-12-29 16:29:25,60.91,-46.05,26.6,86,75,2.24,broken clouds,0,0
20,Lavrentiya,RU,2019-12-29 16:29:26,65.58,-170.99,-6.36,86,0,8.12,clear sky,0,0
21,Pevek,RU,2019-12-29 16:29:26,69.7,170.27,-13.02,97,100,13.06,light snow,0,0.19
22,Ancud,CL,2019-12-29 16:29:26,-41.87,-73.83,66.2,42,2,6.93,clear sky,0,0
23,Provideniya,RU,2019-12-29 16:27:59,64.42,-173.23,-2.36,74,0,12.5,clear sky,0,0
24,Saint-Georges,CA,2019-12-29 16:28:38,46.12,-70.67,27.0,68,89,5.01,overcast clouds,0,0
25,Kasongo-Lunda,CD,2019-12-29 16:29:27,-6.48,16.82,76.08,72,100,0.94,overcast clouds,0,0
26,Scalea,IT,2019-12-29 16:29:27,39.82,15.79,45.0,58,94,7.0,light snow,0,0.25
27,Vao,EE,2019-12-29 16:29:27,59.1,26.19,32.23,91,100,14.94,overcast clouds,0,0
28,Oudtshoorn,ZA,2019-12-29 16:29:27,-33.59,22.2,66.2,93,90,11.41,overcast clouds,0,0
29,Cabo San Lucas,MX,2019-12-29 16:25:06,22.89,-109.91,66.99,59,5,3.36,clear sky,0,0
30,Hithadhoo,MV,2019-12-29 16:29:28,-0.6,73.08,83.23,75,100,9.55,overcast clouds,0,0
31,Saint-Philippe,CA,2019-12-29 16:29:28,45.36,-73.48,34.0,62,90,5.82,overcast clouds,0,0
32,Hobart,AU,2019-12-29 16:25:45,-42.88,147.33,61.0,87,90,4.7,overcast clouds,0,0
33,Saint George,GR,2019-12-29 16:29:28,39.45,22.34,42.8,52,75,6.93,broken clouds,0,0
34,Carnarvon,ZA,2019-12-29 16:29:29,-30.97,22.13,85.98,20,58,17.81,broken clouds,0,0
35,Vaini,IN,2019-12-29 16:29:29,15.34,74.49,69.28,75,13,3.11,light rain,0.25,0
36,Castro,CL,2019-12-29 16:29:29,-42.48,-73.76,66.2,42,1,6.93,clear sky,0,0
37,San Carlos,NI,2019-12-29 16:29:29,11.12,-84.78,75.0,31,96,6.08,light rain,0.5,0
38,Kaitangata,NZ,2019-12-29 16:29:30,-46.28,169.85,55.99,74,100,7.0,overcast clouds,0,0
39,Chicama,PE,2019-12-29 16:29:30,-7.84,-79.15,69.8,88,75,10.29,broken clouds,0,0
40,Daru,PG,2019-12-29 16:29:30,-9.07,143.21,75.85,92,88,2.64,overcast clouds,0,0
41,Longyearbyen,NO,2019-12-29 16:26:25,78.22,15.63,15.8,56,40,11.41,scattered clouds,0,0
42,Bukachacha,RU,2019-12-29 16:29:31,52.99,116.91,-24.21,93,0,3.69,clear sky,0,0
43,Watrous,CA,2019-12-29 16:29:32,51.67,-105.46,7.97,91,0,1.12,clear sky,0,0
44,Jamestown,AU,2019-12-29 16:26:25,-33.21,138.6,82.54,32,90,12.08,light rain,0.94,0
45,Bambous Virieux,MU,2019-12-29 16:29:32,-20.34,57.76,77.0,94,75,11.41,light intensity shower rain,0,0
46,Mezen,RU,2019-12-29 16:29:32,65.85,44.24,21.38,68,100,20.76,overcast clouds,0,0
47,Port Alfred,ZA,2019-12-29 16:29:33,-33.59,26.89,70.0,93,7,18.32,light rain,0.31,0
48,Bredasdorp,ZA,2019-12-29 16:29:33,-34.53,20.04,73.99,60,86,14.99,overcast clouds,0,0
49,Dikson,RU,2019-12-29 16:29:33,73.51,80.55,-9.33,94,100,27.22,light snow,0,0.13
50,Huambo,AO,2019-12-29 16:29:33,-12.78,15.73,69.8,83,75,5.82,moderate rain,0,0
51,Tiksi,RU,2019-12-29 16:27:59,71.64,128.87,-20.2,83,100,12.93,overcast clouds,0,0
52,Ust-Nera,RU,2019-12-29 16:29:34,64.57,143.24,-36.33,100,92,2.75,overcast clouds,0,0
53,Qaanaaq,GL,2019-12-29 16:27:57,77.48,-69.36,2.75,90,100,9.06,light snow,0,0.25
54,Hermanus,ZA,2019-12-29 16:29:34,-34.42,19.24,78.01,62,0,13.0,clear sky,0,0
55,Winneba,GH,2019-12-29 16:29:34,5.35,-0.62,87.8,66,5,9.17,clear sky,0,0
56,Yellowknife,CA,2019-12-29 16:25:11,62.45,-114.38,-13.0,83,75,12.75,light snow,0,0
57,Yulara,AU,2019-12-29 16:29:35,-25.24,130.99,82.4,51,96,6.93,overcast clouds,0,0
58,Khorramabad,IR,2019-12-29 16:29:35,33.48,48.35,40.66,61,0,1.05,clear sky,0,0
59,San Policarpo,PH,2019-12-29 16:29:35,12.18,125.51,81.05,77,0,10.85,clear sky,0,0
60,Tuktoyaktuk,CA,2019-12-29 16:29:36,69.44,-133.03,-23.8,74,75,12.75,broken clouds,0,0
61,Middelburg,NL,2019-12-29 16:29:36,51.5,3.61,42.01,75,100,10.29,overcast clouds,0,0
62,Cape Town,ZA,2019-12-29 16:29:36,-33.93,18.42,78.01,53,0,17.22,clear sky,0,0
63,Kloulklubed,PW,2019-12-29 16:29:37,7.04,134.26,80.6,78,75,11.41,broken clouds,0,0
64,Zinder,NE,2019-12-29 16:29:37,13.81,8.99,82.4,12,0,9.17,clear sky,0,0
65,Baykit,RU,2019-12-29 16:29:37,61.68,96.39,-13.47,98,100,3.65,light snow,0,0.13
66,Port Elizabeth,US,2019-12-29 16:29:38,39.31,-74.98,51.01,70,75,8.05,broken clouds,0,0
67,Dingle,PH,2019-12-29 16:29:38,11.0,122.67,72.43,77,0,9.22,clear sky,0,0
68,Catemaco,MX,2019-12-29 16:29:38,18.42,-95.11,80.6,69,90,11.41,overcast clouds,0,0
69,Esperance,AU,2019-12-29 16:29:38,-33.86,121.89,64.4,72,90,17.22,overcast clouds,0,0
70,Santa Cruz Del Sur,CU,2019-12-29 16:29:39,20.71,-78.0,77.67,84,2,17.54,clear sky,0,0
71,Hilo,US,2019-12-29 16:29:39,19.71,-155.08,71.6,83,90,6.93,overcast clouds,0,0
72,Taoudenni,ML,2019-12-29 16:29:39,22.68,-3.98,83.52,8,0,14.23,clear sky,0,0
73,Cotonou,BJ,2019-12-29 16:29:39,6.37,2.43,91.4,41,3,8.05,dust,0,0
74,Khatanga,RU,2019-12-29 16:29:39,71.98,102.47,-21.82,96,100,5.64,overcast clouds,0,0
75,Namibe,AO,2019-12-29 16:29:40,-15.19,12.15,73.26,90,100,11.27,light rain,1.88,0
76,Kulhudhuffushi,MV,2019-12-29 16:29:40,6.62,73.07,81.66,78,33,13.82,scattered clouds,0,0
77,Upernavik,GL,2019-12-29 16:29:40,72.79,-56.15,10.17,85,94,9.71,overcast clouds,0,0
78,Coihaique,CL,2019-12-29 16:29:40,-45.58,-72.07,66.2,39,98,5.82,overcast clouds,0,0
79,Broken Hill,AU,2019-12-29 16:29:40,-31.97,141.45,87.8,23,19,10.29,few clouds,0,0
80,Kropotkin,RU,2019-12-29 16:29:41,45.43,40.58,44.01,65,99,11.25,overcast clouds,0,0
81,Arraial Do Cabo,BR,2019-12-29 16:29:41,-22.97,-42.02,87.8,66,100,12.75,overcast clouds,0,0
82,Atuona,PF,2019-12-29 16:25:10,-9.8,-139.03,80.64,75,94,15.57,light rain,0.13,0
83,Boa Vista,BR,2019-12-29 16:29:18,2.82,-60.67,87.8,48,75,12.75,broken clouds,0,0
84,Bluff,AU,2019-12-29 16:24:43,-23.58,149.07,71.71,79,21,11.3,few clouds,0,0
85,Mount Isa,AU,2019-12-29 16:29:42,-20.73,139.49,82.4,39,8,4.81,clear sky,0,0
86,Tateyama,JP,2019-12-29 16:29:42,36.66,137.31,42.01,71,100,6.11,overcast clouds,0,0
87,Sturgeon Bay,US,2019-12-29 16:29:42,44.83,-87.38,46.0,100,90,9.17,light rain,0,0
88,Kruisfontein,ZA,2019-12-29 16:29:42,-34.0,24.73,72.59,74,80,17.58,broken clouds,0,0
89,Katsuura,JP,2019-12-29 16:29:43,33.93,134.5,48.99,100,75,4.7,light intensity shower rain,0,0
90,Quang Ngai,VN,2019-12-29 16:29:43,15.12,108.8,74.53,84,98,19.06,overcast clouds,0,0
91,Butaritari,KI,2019-12-29 16:29:43,3.07,172.79,83.05,74,0,15.46,clear sky,0,0
92,Sankt Johann Im Pongau,AT,2019-12-29 16:29:43,47.35,13.2,30.0,79,19,3.36,few clouds,0,0
93,Denpasar,ID,2019-12-29 16:28:20,-8.65,115.22,84.2,83,20,4.7,few clouds,0,0
94,Kapaa,US,2019-12-29 16:29:44,22.08,-159.32,71.6,88,75,10.29,light rain,0,0
95,Katobu,ID,2019-12-29 16:29:44,-4.94,122.53,75.34,92,100,2.42,overcast clouds,0,0
96,Barrow,AR,2019-12-29 16:29:44,-38.31,-60.23,79.95,54,78,7.38,broken clouds,0,0
97,Mount Pleasant,US,2019-12-29 16:29:44,33.16,-94.97,55.4,87,1,5.82,light rain,0,0
98,Hay River,CA,2019-12-29 16:29:45,60.82,-115.79,-9.4,69,90,13.87,overcast clouds,0,0
99,Aviles,ES,2019-12-29 16:29:45,43.55,-5.92,61.0,67,8,1.12,clear sky,0,0
100,Mackay,CA,2019-12-29 16:29:45,53.65,-115.58,15.8,92,20,2.24,few clouds,0,0
101,Iqaluit,CA,2019-12-29 16:29:45,63.75,-68.52,-2.2,77,75,9.17,broken clouds,0,0
102,Presidencia Roque Saenz Pena,AR,2019-12-29 16:29:45,-26.79,-60.44,101.12,28,99,6.42,overcast clouds,0,0
103,Mahebourg,MU,2019-12-29 16:26:26,-20.41,57.7,77.0,94,75,11.41,light intensity shower rain,0,0
104,Kodiak,US,2019-12-29 16:29:46,39.95,-94.76,41.0,76,90,16.11,overcast clouds,0,0
105,Cherskiy,RU,2019-12-29 16:29:50,68.75,161.3,-26.91,99,100,5.35,overcast clouds,0,0
106,Takoradi,GH,2019-12-29 16:29:50,4.89,-1.75,84.52,69,42,12.08,scattered clouds,0,0
107,Egvekinot,RU,2019-12-29 16:29:50,66.32,-179.17,-5.51,61,0,7.09,clear sky,0,0
108,Mar Del Plata,AR,2019-12-29 16:28:00,-46.43,-67.52,73.4,31,9,10.67,clear sky,0,0
109,Isangel,VU,2019-12-29 16:29:50,-19.55,169.27,69.8,88,38,17.47,light rain,0.25,0
110,Nanortalik,GL,2019-12-29 16:29:51,60.14,-45.24,30.2,70,100,13.15,overcast clouds,0,0
111,Pisco,PE,2019-12-29 16:29:51,-13.71,-76.2,73.0,30,20,10.29,mist,0,0
112,Beloha,MG,2019-12-29 16:29:51,-25.17,45.06,86.72,57,0,16.15,clear sky,0,0
113,Banda Aceh,ID,2019-12-29 16:29:51,5.56,95.32,75.0,93,53,3.2,light rain,0.81,0
114,Fallon,US,2019-12-29 16:29:52,46.84,-105.12,19.99,100,90,12.75,overcast clouds,0,0
115,Katangli,RU,2019-12-29 16:29:52,51.71,143.23,-3.91,92,76,9.31,broken clouds,0,0
116,Ales,FR,2019-12-29 16:29:52,44.13,4.08,50.0,71,93,4.7,overcast clouds,0,0
117,Coquimbo,CL,2019-12-29 16:29:53,-29.95,-71.34,66.2,68,40,17.22,scattered clouds,0,0
118,Tanhacu,BR,2019-12-29 16:29:53,-14.02,-41.25,90.68,38,71,5.23,broken clouds,0,0
119,Saldanha,PT,2019-12-29 16:29:53,41.42,-6.55,55.89,51,8,2.82,clear sky,0,0
120,Ahuimanu,US,2019-12-29 16:29:54,21.44,-157.84,77.0,78,90,8.05,overcast clouds,0,0
121,Tautira,PF,2019-12-29 16:29:54,-17.73,-149.15,77.0,78,75,2.24,broken clouds,0,0
122,Chuy,UY,2019-12-29 16:29:54,-33.69,-53.46,92.41,48,0,1.28,clear sky,0,0
123,Chokurdakh,RU,2019-12-29 16:28:05,70.62,147.9,-30.84,88,0,6.15,clear sky,0,0
124,Pangnirtung,CA,2019-12-29 16:29:55,66.15,-65.72,-10.43,88,3,3.11,clear sky,0,0
125,Torbay,CA,2019-12-29 16:26:24,47.66,-52.73,33.01,86,75,21.92,light rain,0,0
126,Clyde River,CA,2019-12-29 16:26:24,70.47,-68.59,17.6,67,90,21.92,overcast clouds,0,0
127,Beni Mazar,EG,2019-12-29 16:29:55,28.5,30.8,59.07,41,0,6.76,clear sky,0,0
128,Kamenka,MD,2019-12-29 16:29:56,48.03,28.7,30.0,86,100,12.3,light snow,0,0.19
129,Waiouru,NZ,2019-12-29 16:29:56,-39.48,175.67,51.04,90,90,7.4,overcast clouds,0,0
130,Zhob,PK,2019-12-29 16:29:56,31.34,69.45,45.9,33,0,3.83,clear sky,0,0
131,Lebu,ET,2019-12-29 16:29:56,8.96,38.73,60.8,48,40,11.41,scattered clouds,0,0
132,Prattville,US,2019-12-29 16:29:56,32.46,-86.46,70.0,100,90,3.36,light rain,0,0
133,Cayenne,GF,2019-12-29 16:29:57,4.94,-52.33,87.8,62,40,13.87,scattered clouds,0,0
134,Sibolga,ID,2019-12-29 16:27:20,1.74,98.78,72.57,97,83,2.62,light rain,2.31,0
135,Flinders,AU,2019-12-29 16:29:57,-34.58,150.85,70.0,100,90,2.24,overcast clouds,0,0
136,Ribeira Grande,PT,2019-12-29 16:29:57,38.52,-28.7,62.6,59,20,11.41,few clouds,0,0
137,Lima,PE,2019-12-29 16:29:57,-12.06,-77.04,75.2,73,40,9.17,scattered clouds,0,0
138,Horconcitos,PA,2019-12-29 16:29:58,8.47,-81.8,78.51,72,28,5.86,scattered clouds,0,0
139,Ahipara,NZ,2019-12-29 16:28:28,-35.17,173.16,53.01,100,0,10.31,clear sky,0,0
140,Villa Maria,CO,2019-12-29 16:29:58,4.5,-74.09,87.8,43,40,9.17,scattered clouds,0,0
141,Pankovka,RU,2019-12-29 16:29:58,58.5,31.2,24.8,81,19,8.28,few clouds,0,0
142,Ostrovnoy,RU,2019-12-29 16:28:01,68.05,39.51,28.22,86,96,36.62,light snow,0,1.06
143,Xuddur,SO,2019-12-29 16:29:59,4.12,43.89,87.73,36,91,15.73,overcast clouds,0,0
144,Barmer,IN,2019-12-29 16:29:59,25.74,71.4,62.8,17,0,9.42,clear sky,0,0
145,Vana-Vigala,EE,2019-12-29 16:29:59,58.78,24.25,39.0,86,90,16.11,light rain,0,0
146,Lyubech,UA,2019-12-29 16:29:59,51.7,30.66,28.94,86,100,8.3,overcast clouds,0,0
147,Duminichi,RU,2019-12-29 16:29:59,53.93,35.11,24.46,86,94,3.02,overcast clouds,0,0
148,Okhotsk,RU,2019-12-29 16:30:00,59.36,143.24,7.57,73,100,7.11,overcast clouds,0,0
149,Bethel,US,2019-12-29 16:25:05,60.79,-161.76,-22.0,74,1,6.93,clear sky,0,0
150,Zonguldak,TR,2019-12-29 16:30:00,41.25,31.83,32.92,92,100,2.37,light snow,0,0.19
151,Viedma,AR,2019-12-29 16:30:00,-40.81,-62.99,87.84,16,0,10.11,clear sky,0,0
152,Abeche,TD,2019-12-29 16:30:01,13.83,20.83,89.6,14,25,4.7,scattered clouds,0,0
153,Pitkyaranta,RU,2019-12-29 16:30:01,61.57,31.48,32.34,88,100,24.49,light snow,0,1.13
154,Sorland,NO,2019-12-29 16:30:01,67.67,12.69,44.6,100,75,16.11,moderate rain,0,0
155,Saskylakh,RU,2019-12-29 16:25:34,71.97,114.09,-18.83,95,100,12.06,overcast clouds,0,0
156,Santana Do Acarau,BR,2019-12-29 16:30:02,-3.46,-40.21,94.06,39,94,7.72,overcast clouds,0,0
157,Walvis Bay,NA,2019-12-29 16:30:02,-22.95,14.51,73.4,56,49,16.11,scattered clouds,0,0
158,Luganville,VU,2019-12-29 16:30:03,-15.51,167.18,78.8,83,7,6.93,clear sky,0,0
159,Airai,TL,2019-12-29 16:30:03,-8.93,125.41,68.07,94,99,2.51,overcast clouds,0,0
160,Paso De Los Toros,UY,2019-12-29 16:30:04,-32.81,-56.52,87.8,55,20,5.08,few clouds,0,0
161,La Primavera,AR,2019-12-29 16:30:04,-32.92,-68.67,89.6,35,75,8.05,broken clouds,0,0
162,Lasa,CY,2019-12-29 16:30:04,34.92,32.53,55.4,87,75,11.41,thunderstorm with light rain,0,0
163,Okha,RU,2019-12-29 16:30:05,53.59,142.95,-1.79,96,100,15.93,light snow,0,0.56
164,Buraydah,SA,2019-12-29 16:30:08,26.33,43.97,68.0,40,0,3.36,clear sky,0,0
165,Pombia,GR,2019-12-29 16:30:08,35.01,24.87,50.0,87,75,7.7,light rain,0,0
166,Dalbandin,PK,2019-12-29 16:30:08,28.9,64.41,54.18,47,0,1.99,clear sky,0,0
167,Saint-Joseph,FR,2019-12-29 16:30:09,43.56,6.97,53.6,76,78,1.12,broken clouds,0,0
168,Buldana,IN,2019-12-29 16:30:09,20.53,76.18,65.17,44,100,13.31,overcast clouds,0,0
169,Kinablangan,PH,2019-12-29 16:30:09,7.69,126.55,70.12,90,75,4.76,light rain,0.75,0
170,Ponta Do Sol,BR,2019-12-29 16:30:10,-20.63,-46.0,81.36,58,64,3.53,light rain,0.19,0
171,Lorengau,PG,2019-12-29 16:30:10,-2.02,147.27,82.87,72,93,5.77,overcast clouds,0,0
172,Praia Da Vitoria,PT,2019-12-29 16:30:10,38.73,-27.07,62.6,67,40,9.84,light intensity shower rain,0,0
173,Seoul,KR,2019-12-29 16:28:13,37.57,126.98,41.0,86,90,2.53,light rain,0,0
174,Sweetwater,US,2019-12-29 16:30:11,32.47,-100.41,42.01,55,40,12.75,scattered clouds,0,0
175,Tikrit,IQ,2019-12-29 16:30:11,34.62,43.68,55.06,55,0,7.09,clear sky,0,0
176,Elmina,GH,2019-12-29 16:30:11,5.09,-1.35,82.9,74,40,12.12,scattered clouds,0,0
177,East London,ZA,2019-12-29 16:30:11,-33.02,27.91,78.8,61,93,13.87,overcast clouds,0,0
178,Kashirskoye,RU,2019-12-29 16:30:11,51.42,39.61,21.2,79,90,4.47,overcast clouds,0,0
179,Jalingo,NG,2019-12-29 16:30:12,10.3,10.93,70.43,20,9,7.02,clear sky,0,0
180,Te Anau,NZ,2019-12-29 16:28:03,-45.41,167.72,52.39,91,100,8.01,overcast clouds,0,0
181,Raiwind,PK,2019-12-29 16:30:12,31.24,74.22,42.8,87,1,0.31,mist,0,0
182,Geraldton,CA,2019-12-29 16:30:12,49.72,-86.95,17.6,85,90,17.22,overcast clouds,0,0
183,Umba,RU,2019-12-29 16:30:13,66.69,34.34,35.33,94,100,23.11,light rain,0.31,0
184,Imbituba,BR,2019-12-29 16:30:13,-28.24,-48.67,89.6,55,62,11.41,broken clouds,0,0
185,Gastonia,US,2019-12-29 16:30:13,35.26,-81.19,66.2,88,90,6.93,overcast clouds,0,0
186,Dunedin,NZ,2019-12-29 16:29:41,-45.87,170.5,57.0,80,100,18.99,overcast clouds,0,0
187,Oban,GB,2019-12-29 16:30:14,56.42,-5.47,54.0,76,90,19.46,light intensity drizzle rain,0,0
188,Sept-Iles,CA,2019-12-29 16:30:14,50.2,-66.38,23.0,53,40,14.99,scattered clouds,0,0
189,Port Blair,IN,2019-12-29 16:25:31,11.67,92.75,81.07,78,0,14.47,clear sky,0,0
190,Maine-Soroa,NE,2019-12-29 16:30:14,13.21,12.02,68.86,17,23,9.53,few clouds,0,0
191,Georgetown,GY,2019-12-29 16:28:44,6.8,-58.16,86.0,70,40,11.41,scattered clouds,0,0
192,Floresti,MD,2019-12-29 16:30:15,47.89,28.3,28.96,91,100,10.18,light snow,0,0.19
193,Rumuruti,KE,2019-12-29 16:30:15,0.26,36.54,61.36,79,86,10.6,light rain,0.19,0
194,Antofagasta,CL,2019-12-29 16:30:15,-23.65,-70.4,69.8,73,20,14.99,few clouds,0,0
195,Tabou,CI,2019-12-29 16:30:16,4.42,-7.36,80.37,84,27,4.63,light rain,1.5,0
196,Nikolskoye,RU,2019-12-29 16:30:16,59.7,30.79,27.0,79,75,13.42,broken clouds,0,0
197,Souillac,FR,2019-12-29 16:30:16,45.6,-0.6,46.4,81,99,4.7,overcast clouds,0,0
198,Puerto Ayora,EC,2019-12-29 16:28:01,-0.74,-90.35,78.8,74,75,9.17,broken clouds,0,0
199,Plouzane,FR,2019-12-29 16:30:17,48.38,-4.62,48.2,76,18,3.36,few clouds,0,0
200,Miri,NG,2019-12-29 16:28:28,10.31,9.75,85.87,9,56,7.18,broken clouds,0,0
201,Monteagudo,BO,2019-12-29 16:30:17,-19.8,-63.96,89.6,49,40,5.82,scattered clouds,0,0
202,Deep River,CA,2019-12-29 16:30:17,46.1,-77.49,28.0,85,1,5.66,clear sky,0,0
203,North Branch,US,2019-12-29 16:28:55,45.51,-92.98,41.0,93,90,5.82,light rain,0,0
204,Komsomolskiy,RU,2019-12-29 16:30:18,67.55,63.78,15.13,93,100,21.03,light snow,0,1.38
205,Santiago Del Estero,AR,2019-12-29 16:30:18,-27.8,-64.26,92.19,50,100,10.38,moderate rain,8.69,0
206,Kavieng,PG,2019-12-29 16:30:19,-2.57,150.8,83.01,74,22,8.08,few clouds,0,0
207,Diplo,PK,2019-12-29 16:30:19,24.47,69.59,61.43,13,0,10.87,clear sky,0,0
208,Bereda,ES,2019-12-29 16:30:19,43.27,-7.54,62.01,48,45,2.24,scattered clouds,0,0
209,Sarankhola,BD,2019-12-29 16:30:19,22.31,89.79,60.93,60,0,5.99,clear sky,0,0
210,Carrollton,US,2019-12-29 16:28:00,33.58,-85.08,70.0,88,90,8.05,overcast clouds,0,0
211,Darab,IR,2019-12-29 16:30:20,28.75,54.55,52.41,59,0,1.77,clear sky,0,0
212,Ternate,PH,2019-12-29 16:30:20,14.29,120.72,80.6,74,75,9.15,broken clouds,0,0
213,Byron Bay,AU,2019-12-29 16:29:49,-28.65,153.62,73.0,77,40,5.82,scattered clouds,0,0
214,Podporozhye,RU,2019-12-29 16:30:20,60.91,34.16,22.48,82,100,11.25,overcast clouds,0,0
215,Grand Gaube,MU,2019-12-29 16:30:20,-20.01,57.66,77.0,94,75,11.41,light intensity shower rain,0,0
216,Severo-Kurilsk,RU,2019-12-29 16:27:56,50.68,156.12,25.45,87,100,16.55,light snow,0,1.13
217,Hualmay,PE,2019-12-29 16:30:21,-11.1,-77.61,79.02,56,48,10.71,scattered clouds,0,0
218,Paamiut,GL,2019-12-29 16:30:21,61.99,-49.67,23.88,68,11,7.54,few clouds,0,0
219,Marion,US,2019-12-29 16:30:21,35.21,-90.2,55.99,93,90,10.29,light rain,0,0
220,Mulege,MX,2019-12-29 16:30:22,26.88,-111.98,62.02,49,0,15.75,clear sky,0,0
221,Pacific Grove,US,2019-12-29 16:30:22,36.62,-121.92,51.01,93,75,3.36,broken clouds,0,0
222,Avarua,CK,2019-12-29 16:25:57,-21.21,-159.78,77.0,73,100,8.05,light rain,0.81,0
223,San Patricio,PY,2019-12-29 16:30:22,-26.98,-56.83,104.72,23,0,3.87,clear sky,0,0
224,Breytovo,RU,2019-12-29 16:30:23,58.3,37.86,22.71,82,98,13.49,overcast clouds,0,0
225,Wuhan,CN,2019-12-29 16:30:23,30.6,114.3,42.8,93,100,2.24,mist,0,0
226,New Norfolk,AU,2019-12-29 16:30:23,-42.78,147.06,61.0,87,90,4.7,overcast clouds,0,0
227,Conway,US,2019-12-29 16:30:23,35.09,-92.44,55.4,100,90,6.93,overcast clouds,0,0
228,Fortuna,US,2019-12-29 16:29:29,40.6,-124.16,48.99,93,90,10.29,light rain,0,0
229,Bafq,IR,2019-12-29 16:30:24,31.6,55.4,50.13,45,0,3.22,clear sky,0,0
230,Cidreira,BR,2019-12-29 16:30:24,-30.17,-50.22,76.64,81,55,9.98,broken clouds,0,0
231,Saint-Pierre,FR,2019-12-29 16:30:24,48.95,4.24,39.99,86,71,6.93,broken clouds,0,0
232,Grindavik,IS,2019-12-29 16:30:25,63.84,-22.43,37.4,77,75,20.8,broken clouds,0,0
233,Sao Mateus Do Sul,BR,2019-12-29 16:30:25,-25.87,-50.38,92.5,26,27,3.89,scattered clouds,0,0
234,Ossora,RU,2019-12-29 16:30:25,59.24,163.07,0.88,63,0,2.24,clear sky,0,0
235,Mackenzie,CA,2019-12-29 16:30:25,55.34,-123.09,23.0,100,90,4.7,overcast clouds,0,0
236,Nhulunbuy,AU,2019-12-29 16:29:45,-12.18,136.78,82.4,74,52,5.14,broken clouds,0,0
237,San Cristobal,HN,2019-12-29 16:30:26,14.68,-86.92,80.89,54,60,8.37,broken clouds,0,0
238,Aleksandrov Gay,RU,2019-12-29 16:30:26,50.14,48.57,23.31,68,85,6.87,overcast clouds,0,0
239,Pustoshka,RU,2019-12-29 16:30:26,56.34,29.37,22.66,87,36,8.28,scattered clouds,0,0
240,Prince Albert,CA,2019-12-29 16:25:29,53.2,-105.75,1.4,84,90,6.2,fog,0,0
241,Romulus,US,2019-12-29 16:26:50,42.22,-83.4,46.4,87,90,6.93,moderate rain,0,0
242,Saint-Augustin,CA,2019-12-29 16:30:12,45.63,-73.98,34.0,57,75,4.7,broken clouds,0,0
243,Rey Bouba,CM,2019-12-29 16:30:27,8.67,14.18,76.98,17,83,0.78,broken clouds,0,0
244,Maniitsoq,GL,2019-12-29 16:30:28,65.42,-52.9,20.34,53,100,3.15,overcast clouds,0,0
245,Lufilufi,WS,2019-12-29 16:30:28,-13.87,-171.6,80.98,81,100,21.41,light rain,2.81,0
246,Kungurtug,RU,2019-12-29 16:29:14,50.6,97.53,-19.17,70,0,3.58,clear sky,0,0
247,Veraval,FR,2019-12-29 16:30:28,49.65,0.71,39.2,86,84,6.93,broken clouds,0,0
248,Kazaki,RU,2019-12-29 16:30:28,52.62,38.27,23.83,71,4,6.31,clear sky,0,0
249,Oum Hadjer,TD,2019-12-29 16:30:29,13.3,19.7,70.65,11,0,7.09,clear sky,0,0
250,Wentzville,US,2019-12-29 16:30:29,38.81,-90.85,57.99,87,90,6.93,overcast clouds,0,0
251,Kiama,AU,2019-12-29 16:30:29,-34.67,150.86,70.0,100,90,2.24,overcast clouds,0,0
252,Verkhnevilyuysk,RU,2019-12-29 16:30:29,63.45,120.31,-26.52,94,23,5.79,few clouds,0,0
253,Vostok,RU,2019-12-29 16:30:29,46.45,135.83,17.06,97,100,3.22,snow,0,2.25
254,Pedernales,EC,2019-12-29 16:29:39,0.07,-80.05,80.33,67,78,3.6,broken clouds,0,0
255,Zyryanka,RU,2019-12-29 16:30:30,65.73,150.89,-28.77,85,0,3.56,clear sky,0,0
256,Sines,PT,2019-12-29 16:29:33,37.96,-8.87,60.01,82,0,3.0,clear sky,0,0
257,Nioro,GM,2019-12-29 16:30:30,13.79,-15.05,93.7,7,7,7.38,clear sky,0,0
258,Diapaga,BF,2019-12-29 16:30:30,12.07,1.79,78.93,13,6,7.29,clear sky,0,0
259,Reconquista,AR,2019-12-29 16:28:02,-29.14,-59.64,99.19,31,100,6.8,overcast clouds,0,0
260,Victoria,BN,2019-12-29 16:30:15,5.28,115.24,82.4,83,75,9.17,broken clouds,0,0
261,Cintalapa,MX,2019-12-29 16:30:31,16.7,-93.73,85.39,42,77,1.48,broken clouds,0,0
262,Sabha,LY,2019-12-29 16:30:31,27.03,14.43,51.03,35,58,15.19,broken clouds,0,0
263,Los Alamos,US,2019-12-29 16:30:32,35.88,-106.3,21.99,85,90,7.0,overcast clouds,0,0
264,Gallup,US,2019-12-29 16:26:52,35.53,-108.74,14.0,78,1,5.82,clear sky,0,0
265,Lata,IN,2019-12-29 16:30:32,30.78,78.62,16.29,21,100,6.46,overcast clouds,0,0
266,Kijang,KR,2019-12-29 16:30:32,35.24,129.21,41.0,93,90,8.05,light rain,0,0
267,Mikkeli,FI,2019-12-29 16:30:33,61.69,27.27,30.99,100,100,5.01,overcast clouds,0.06,0
268,Poros,TR,2019-12-29 16:30:33,40.9,26.22,39.2,60,40,8.05,scattered clouds,0,0
269,Sitka,US,2019-12-29 16:27:09,37.17,-99.65,33.01,73,0,15.99,clear sky,0,0
270,Waipawa,NZ,2019-12-29 16:30:33,-39.94,176.59,55.99,83,5,8.01,clear sky,0,0
271,Saryg-Sep,RU,2019-12-29 16:30:33,51.49,95.55,-22.54,85,1,2.8,clear sky,0,0
272,Singapore,MY,2019-12-29 16:28:07,1.29,103.85,80.6,83,75,6.93,broken clouds,0,0
273,Kungsbacka,SE,2019-12-29 16:30:34,57.49,12.08,44.01,93,90,21.92,fog,0,0
274,Thompson,CA,2019-12-29 16:30:34,55.74,-97.86,3.2,84,90,4.7,light snow,0,0
275,Moshenskoye,RU,2019-12-29 16:30:34,58.52,34.59,20.98,87,83,8.93,broken clouds,0,0
276,Arman,RU,2019-12-29 16:30:34,59.7,150.17,10.35,65,100,9.53,overcast clouds,0,0
277,Tual,ID,2019-12-29 16:30:35,-5.67,132.75,83.53,74,88,9.22,moderate rain,3.62,0
278,Olinda,AU,2019-12-29 16:30:35,-37.84,145.39,72.0,68,31,5.82,scattered clouds,0,0
279,Constitucion,MX,2019-12-29 16:30:35,23.99,-104.67,54.0,15,40,8.05,scattered clouds,0,0
280,Hobyo,SO,2019-12-29 16:30:35,5.35,48.53,79.02,78,80,12.64,broken clouds,0,0
281,Port Macquarie,AU,2019-12-29 16:30:36,-31.43,152.91,70.0,77,0,12.75,clear sky,0,0
282,Bama,CN,2019-12-29 16:30:36,24.14,107.25,56.21,90,85,1.45,overcast clouds,0,0
283,Bathsheba,BB,2019-12-29 16:30:36,13.22,-59.52,86.0,62,75,18.34,shower rain,0,0
284,Kontagora,NG,2019-12-29 16:30:36,10.4,5.47,79.2,14,0,6.42,clear sky,0,0
285,Alice Springs,AU,2019-12-29 16:30:36,-23.7,133.88,87.8,31,60,8.05,broken clouds,0,0
286,Tarakan,ID,2019-12-29 16:30:37,3.3,117.63,80.69,82,24,8.72,light rain,1,0
287,Mecca,SA,2019-12-29 16:30:08,21.43,39.83,68.76,60,0,6.04,clear sky,0,0
288,Abalak,NE,2019-12-29 16:30:37,15.46,6.28,69.35,13,0,8.63,clear sky,0,0
289,Kaputa,ZM,2019-12-29 16:30:38,-8.47,29.66,66.85,98,100,1.3,light rain,0.31,0
290,Mianyang,CN,2019-12-29 16:30:38,31.46,104.75,44.49,64,62,3.91,broken clouds,0,0
291,Yarim,YE,2019-12-29 16:30:38,14.3,44.38,55.89,52,0,6.08,clear sky,0,0
292,Arlit,NE,2019-12-29 16:30:38,18.74,7.39,70.97,13,0,9.04,clear sky,0,0
293,Nago,IT,2019-12-29 16:30:38,45.88,10.89,39.99,93,75,5.82,mist,0,0
294,Letlhakeng,BW,2019-12-29 16:30:39,-24.1,25.03,75.58,59,65,7.85,broken clouds,0,0
295,Alofi,NU,2019-12-29 16:30:39,-19.06,-169.92,77.0,88,75,5.82,broken clouds,0,0
296,Khilok,RU,2019-12-29 16:30:39,51.36,110.46,-26.36,95,27,3.0,scattered clouds,0,0
297,Mizdah,LY,2019-12-29 16:30:39,31.45,12.98,43.41,66,50,11.56,light rain,0.13,0
298,Vilyuysk,RU,2019-12-29 16:29:40,63.75,121.63,-28.84,94,0,8.88,clear sky,0,0
299,Baruun-Urt,MN,2019-12-29 16:30:40,46.68,113.28,-15.75,90,100,3.76,overcast clouds,0,0
300,Visnes,NO,2019-12-29 16:30:40,59.36,5.22,46.99,100,75,17.22,shower rain,0,0
301,Qaqortoq,GL,2019-12-29 16:30:40,60.72,-46.03,26.6,86,75,2.24,broken clouds,0,0
302,Tura,RU,2019-12-29 16:30:40,64.27,100.22,-16.89,90,100,5.14,overcast clouds,0,0
303,Buala,SB,2019-12-29 16:30:40,-8.15,159.59,77.45,82,0,5.39,clear sky,0,0
304,Nishihara,JP,2019-12-29 16:30:41,35.74,139.53,50.0,65,90,8.08,overcast clouds,0,0
305,Tessalit,ML,2019-12-29 16:30:41,20.2,1.01,70.5,9,0,11.03,clear sky,0,0
306,Luau,CD,2019-12-29 16:30:41,-10.7,22.23,67.53,97,69,6.06,moderate rain,3.13,0
307,Morehead,US,2019-12-29 16:30:41,38.18,-83.43,60.01,93,75,8.05,moderate rain,0,0
308,Roald,NO,2019-12-29 16:30:41,62.58,6.12,50.0,100,75,31.09,shower rain,0,0
309,Zelenoborskiy,RU,2019-12-29 16:30:42,66.84,32.36,34.97,93,96,9.69,overcast clouds,0,0
310,Tambacounda,SN,2019-12-29 16:30:42,13.77,-13.67,98.6,6,0,9.17,clear sky,0,0
311,Ust-Kulom,RU,2019-12-29 16:30:42,61.69,53.69,-1.34,92,55,7.14,broken clouds,0,0
312,Leh,IN,2019-12-29 16:30:42,34.16,77.58,6.73,28,19,3.38,few clouds,0,0
313,Kyshtovka,RU,2019-12-29 16:30:43,56.56,76.62,4.24,87,100,11.05,light snow,0,0.12
314,Ploemeur,FR,2019-12-29 16:30:19,47.73,-3.43,46.99,81,45,4.7,scattered clouds,0,0
315,Madimba,CM,2019-12-29 16:30:43,4.42,9.93,86.0,74,40,2.24,haze,0,0
316,Eugene,US,2019-12-29 16:27:18,44.05,-123.1,42.01,86,90,3.36,shower rain,0,0
317,San Alberto,PY,2019-12-29 16:30:43,-24.98,-54.91,93.2,46,0,1.79,clear sky,0,0
318,Poum,MK,2019-12-29 16:30:44,41.28,20.71,30.2,54,75,12.75,broken clouds,0,0
319,Slave Lake,CA,2019-12-29 16:30:44,55.28,-114.77,8.6,92,1,3.36,clear sky,0,0
320,Hasaki,JP,2019-12-29 16:30:44,35.73,140.83,42.8,70,75,5.82,broken clouds,0,0
321,Pascagoula,US,2019-12-29 16:30:44,30.37,-88.56,73.4,100,90,12.75,mist,0,0
322,Opuwo,NA,2019-12-29 16:30:45,-18.06,13.84,81.05,38,79,9.78,broken clouds,0,0
323,Oranjemund,ZA,2019-12-29 16:30:45,-28.55,16.43,61.83,92,3,9.42,clear sky,0,0
324,Palmer,AU,2019-12-29 16:30:45,-34.85,139.16,87.01,39,25,6.93,scattered clouds,0,0
325,Holme,DK,2019-12-29 16:30:45,56.11,10.17,44.6,93,100,8.05,mist,0,0
326,Lewistown,US,2019-12-29 16:30:46,40.39,-90.15,55.99,93,75,8.05,broken clouds,0,0
327,Aksarka,RU,2019-12-29 16:30:46,66.56,67.8,12.54,84,100,18.37,overcast clouds,0,0
328,Huinan,CN,2019-12-29 16:30:46,42.68,126.04,1.72,94,100,7.09,light snow,0,0.75
329,Zhigansk,RU,2019-12-29 16:30:46,66.77,123.37,-28.52,93,100,22.35,overcast clouds,0,0
330,Altamont,CA,2019-12-29 16:30:46,49.4,-98.5,14.0,100,75,18.34,broken clouds,0,0
331,Jaciara,BR,2019-12-29 16:30:47,-15.95,-54.98,92.05,46,62,1.7,broken clouds,0,0
332,Aklavik,CA,2019-12-29 16:30:47,68.22,-135.01,-22.0,67,75,5.82,broken clouds,0,0
333,Panaba,MX,2019-12-29 16:30:47,21.28,-88.27,81.0,66,100,7.18,overcast clouds,0,0
334,Jieshi,CN,2019-12-29 16:27:58,22.82,115.83,64.99,98,100,4.54,light rain,0.88,0
335,Matara,BI,2019-12-29 16:30:47,-3.48,29.48,59.9,92,100,2.8,light rain,2.75,0
336,Kilindoni,TZ,2019-12-29 16:30:48,-7.91,39.67,81.82,84,95,16.37,heavy intensity rain,12.81,0
337,Chifeng,CN,2019-12-29 16:30:48,42.27,118.96,2.39,45,0,10.38,clear sky,0,0
338,George Town,MY,2019-12-29 16:30:48,5.42,100.33,82.4,78,20,3.36,few clouds,0,0
339,Vyyezdnoye,RU,2019-12-29 16:30:48,55.38,43.79,16.68,94,82,1.36,broken clouds,0,0
340,Obera,AR,2019-12-29 16:30:48,-27.49,-55.12,99.54,28,11,5.06,few clouds,0,0
341,Bilma,NE,2019-12-29 16:30:49,18.69,12.92,62.69,21,0,8.52,clear sky,0,0
342,Margate,AU,2019-12-29 16:30:49,-43.03,147.26,61.0,87,90,4.7,overcast clouds,0,0
343,Dedougou,BF,2019-12-29 16:30:49,12.47,-3.47,83.97,11,0,7.0,clear sky,0,0
344,Acapulco,MX,2019-12-29 16:30:49,16.86,-99.88,82.4,74,40,2.24,scattered clouds,0,0
345,Felipe Carrillo Puerto,MX,2019-12-29 16:30:49,19.58,-88.05,81.97,68,99,5.19,overcast clouds,0,0
346,Palmas Bellas,PA,2019-12-29 16:30:50,9.23,-80.09,86.0,79,20,2.24,few clouds,0,0
347,Gizo,IL,2019-12-29 16:30:09,31.8,34.94,60.8,51,18,3.36,few clouds,0,0
348,Sfantu Gheorghe,RO,2019-12-29 16:30:50,44.65,26.83,36.0,85,75,18.34,broken clouds,0,0
349,Havre-Saint-Pierre,CA,2019-12-29 16:30:50,50.23,-63.6,19.4,67,90,8.05,light snow,0,0
350,Changji,CN,2019-12-29 16:30:50,32.07,116.17,46.67,84,89,1.43,overcast clouds,0,0
351,Strezhevoy,RU,2019-12-29 16:30:13,60.73,77.6,-23.8,74,10,2.24,clear sky,0,0
352,Sao Joao Da Barra,BR,2019-12-29 16:28:49,-21.64,-41.05,86.0,55,40,4.7,scattered clouds,0,0
353,Tiarei,PF,2019-12-29 16:30:51,-17.53,-149.33,77.0,78,75,2.24,broken clouds,0,0
354,Vardo,US,2019-12-29 16:30:51,39.62,-77.74,48.99,87,90,3.36,moderate rain,0,0
355,Fez,MA,2019-12-29 16:30:52,34.03,-5.02,64.4,45,43,6.93,scattered clouds,0,0
356,Kuito,AO,2019-12-29 16:30:52,-12.38,16.94,64.47,89,100,6.87,light rain,0.56,0
357,Dandong,CN,2019-12-29 16:30:52,40.12,124.37,27.18,86,100,10.74,light snow,0,0.25
358,Fort Nelson,CA,2019-12-29 16:30:52,58.81,-122.69,-7.6,83,40,2.24,scattered clouds,0,0
359,Touros,BR,2019-12-29 16:30:52,-5.2,-35.46,86.0,58,40,16.11,scattered clouds,0,0
360,Ilhabela,BR,2019-12-29 16:29:19,-23.78,-45.36,77.29,85,100,15.14,overcast clouds,0,0
361,Labuhan,ID,2019-12-29 16:30:13,-2.54,115.51,74.97,95,96,1.97,overcast clouds,0,0
362,Guerrero Negro,MX,2019-12-29 16:30:53,27.97,-114.04,60.69,37,0,5.53,clear sky,0,0
363,Juneau,US,2019-12-29 16:30:53,58.3,-134.42,39.2,86,90,8.05,light rain,0,0
364,Kitgum,UG,2019-12-29 16:30:53,3.3,32.88,77.86,28,21,4.76,few clouds,0,0
365,Virginia Beach,US,2019-12-29 16:30:54,36.85,-75.98,62.6,77,90,9.17,overcast clouds,0,0
366,Tocopilla,CL,2019-12-29 16:30:54,-22.09,-70.2,77.74,24,0,12.93,clear sky,0,0
367,Broome,GB,2019-12-29 16:30:54,52.47,1.45,46.4,81,80,12.75,broken clouds,0,0
368,Merauke,ID,2019-12-29 16:27:59,-8.49,140.4,77.58,91,100,2.73,overcast clouds,0,0
369,Mogok,MM,2019-12-29 16:30:54,22.92,96.51,52.47,88,0,2.08,clear sky,0,0
370,Tazovskiy,RU,2019-12-29 16:30:55,67.47,78.7,12.11,95,100,8.68,light snow,0,0.5
371,Vila Velha,BR,2019-12-29 16:30:55,-3.71,-38.6,87.8,62,40,18.34,scattered clouds,0,0
372,Najran,SA,2019-12-29 16:30:55,17.54,44.22,68.0,28,0,4.7,clear sky,0,0
373,Luanda,AO,2019-12-29 16:30:55,-8.83,13.24,84.2,70,20,11.41,few clouds,0,0
374,Camacha,PT,2019-12-29 16:30:55,33.08,-16.33,71.6,77,78,12.75,broken clouds,0,0
375,Rodrigues Alves,BR,2019-12-29 16:30:56,-7.74,-72.65,77.0,100,75,2.24,light rain,0,0
376,Temiscaming,CA,2019-12-29 16:30:56,46.72,-79.1,30.0,92,90,11.41,overcast clouds,0,0
377,Adrar,DZ,2019-12-29 16:30:56,27.87,-0.29,69.8,27,0,17.22,clear sky,0,0
378,Mount Gambier,AU,2019-12-29 16:30:57,-37.83,140.78,69.8,64,13,9.17,few clouds,0,0
379,Annau,TM,2019-12-29 16:30:57,37.89,58.52,53.6,62,90,6.93,overcast clouds,0,0
380,Bushehr,IR,2019-12-29 16:30:57,28.97,50.84,68.0,56,0,9.17,clear sky,0,0
381,Koumac,NC,2019-12-29 16:26:25,-20.56,164.28,71.91,84,1,5.41,light rain,0.13,0
382,Sydney,AU,2019-12-29 16:29:55,-33.85,151.22,69.01,88,95,4.7,overcast clouds,0,0
383,Atar,MR,2019-12-29 16:30:58,20.52,-13.05,86.0,11,0,18.34,sand,0,0
384,Savalou,BJ,2019-12-29 16:30:58,7.93,1.98,88.99,13,4,1.28,clear sky,0,0
385,Nelson Bay,AU,2019-12-29 16:30:58,-32.72,152.14,70.0,82,0,4.7,clear sky,0,0
386,Tonshayevo,RU,2019-12-29 16:30:59,57.74,47.01,4.77,88,0,3.74,clear sky,0,0
387,Grenville,CA,2019-12-29 16:30:59,45.62,-74.6,34.0,61,75,4.7,broken clouds,0,0
388,Rafai,CF,2019-12-29 16:30:59,4.95,23.92,75.56,22,62,2.15,broken clouds,0,0
389,Wahiawa,US,2019-12-29 16:26:17,21.5,-158.02,77.0,78,90,8.05,overcast clouds,0,0
390,Kamaishi,JP,2019-12-29 16:31:00,39.28,141.86,31.46,68,69,4.68,broken clouds,0,0
391,Manali,IN,2019-12-29 16:31:00,32.25,77.19,35.24,31,100,5.59,overcast clouds,0,0
392,Hearst,CA,2019-12-29 16:31:00,49.69,-83.67,17.62,92,100,7.87,overcast clouds,0,0
393,Gat,SN,2019-12-29 16:31:00,14.69,-16.54,98.6,19,3,4.7,clear sky,0,0
394,Bautar,RO,2019-12-29 16:31:00,45.52,22.57,25.07,75,60,9.91,broken clouds,0,0
395,Norman Wells,CA,2019-12-29 16:27:56,65.28,-126.83,-25.6,74,40,8.05,scattered clouds,0,0
396,Maua,KE,2019-12-29 16:31:01,0.23,37.94,70.68,74,78,4.59,broken clouds,0,0
397,Ugoofaaru,MV,2019-12-29 16:31:01,5.67,73.0,81.97,80,61,17.49,broken clouds,0,0
398,Chunoyar,RU,2019-12-29 16:31:01,57.45,97.32,-14.46,94,100,2.86,overcast clouds,0,0
399,Honiara,SB,2019-12-29 16:31:02,-9.43,159.96,75.2,94,20,3.36,few clouds,0,0
400,Manggar,ID,2019-12-29 16:31:02,-2.88,108.27,81.95,81,64,9.71,broken clouds,0,0
401,Pacifica,US,2019-12-29 16:31:02,37.61,-122.49,52.0,93,90,3.36,light rain,0,0
402,Thamaga,BW,2019-12-29 16:31:02,-24.68,25.54,78.8,54,75,6.93,broken clouds,0,0
403,Mims,US,2019-12-29 16:31:02,34.23,-90.13,55.99,100,90,4.7,heavy intensity rain,0,0
404,Cabatuan,PH,2019-12-29 16:31:03,16.95,121.67,69.85,84,0,1.95,clear sky,0,0
405,Sao Filipe,CV,2019-12-29 16:31:03,14.9,-24.5,74.35,64,0,14.03,clear sky,0,0
406,Merritt,CA,2019-12-29 16:31:03,50.11,-120.79,32.0,95,90,2.24,overcast clouds,0,0
407,Kuytun,RU,2019-12-29 16:31:04,54.34,101.51,-16.19,93,83,10.83,broken clouds,0,0
408,Danilovka,RU,2019-12-29 16:31:04,50.35,44.12,21.74,72,100,4.9,overcast clouds,0,0
409,Edson,CA,2019-12-29 16:27:12,53.59,-116.44,8.6,92,1,4.7,clear sky,0,0
410,Alice Town,BS,2019-12-29 16:31:04,25.72,-79.3,76.33,78,33,19.69,scattered clouds,0,0
411,Namatanai,PG,2019-12-29 16:31:05,-3.66,152.44,81.84,75,26,8.23,scattered clouds,0,0
412,Nagato,JP,2019-12-29 16:31:05,34.35,131.14,55.4,82,75,10.29,light rain,0,0
413,Talalora,PH,2019-12-29 16:31:05,11.53,124.84,73.0,91,4,2.57,clear sky,0,0
414,Kerema,PG,2019-12-29 16:31:05,-7.96,145.78,74.35,91,61,2.84,light rain,1.94,0
415,Karpathos,GR,2019-12-29 16:31:05,35.51,27.21,51.8,87,75,9.17,light rain,0,0
416,Taksimo,RU,2019-12-29 16:31:06,56.36,114.84,-30.26,89,0,0.11,clear sky,0,0
417,Necochea,AR,2019-12-29 16:26:59,-38.55,-58.74,75.99,1,91,7.0,overcast clouds,0,0
418,Konya,TR,2019-12-29 16:31:06,37.87,32.48,35.6,93,75,6.93,broken clouds,0,0
419,Benxi,CN,2019-12-29 16:31:06,41.29,123.76,10.4,66,100,6.71,overcast clouds,0,0
420,Awbari,LY,2019-12-29 16:31:06,26.59,12.77,51.48,49,46,10.16,scattered clouds,0,0
421,Chapais,CA,2019-12-29 16:31:07,49.78,-74.86,19.4,85,90,4.7,light snow,0,0
422,Ayan,IR,2019-12-29 16:31:07,38.23,44.7,18.72,74,20,6.53,few clouds,0,0
423,Kendari,ID,2019-12-29 16:31:07,-3.99,122.52,75.06,94,100,0.94,overcast clouds,0,0
424,Nicoya,CR,2019-12-29 16:30:02,10.15,-85.45,87.8,58,40,11.41,scattered clouds,0,0
425,Vestmannaeyjar,IS,2019-12-29 16:31:07,63.44,-20.27,41.0,86,75,20.8,broken clouds,0,0
426,Jardim,BR,2019-12-29 16:31:08,-21.48,-56.15,97.16,37,79,3.06,broken clouds,0,0
427,Lakinsk,RU,2019-12-29 16:31:08,56.02,39.95,21.16,79,53,2.68,broken clouds,0,0
428,Pandan,PH,2019-12-29 16:29:40,11.72,122.09,79.97,70,0,16.37,clear sky,0,0
429,Itaituba,BR,2019-12-29 16:31:08,-4.26,-55.99,82.4,88,40,3.18,scattered clouds,0,0
430,Wajima,JP,2019-12-29 16:31:08,37.4,136.9,50.23,65,84,8.57,broken clouds,0,0
431,Kirensk,RU,2019-12-29 16:31:09,57.78,108.12,-25.62,94,77,3.96,broken clouds,0,0
432,Noumea,NC,2019-12-29 16:31:09,-22.28,166.46,79.0,73,90,8.05,overcast clouds,0,0
433,Ilulissat,GL,2019-12-29 16:31:09,69.22,-51.1,17.6,67,75,8.05,light snow,0,0
434,Flint,US,2019-12-29 16:31:09,43.02,-83.72,45.0,87,75,8.05,moderate rain,0,0
435,Avera,US,2019-12-29 16:31:10,33.19,-82.53,68.0,100,90,6.93,moderate rain,0,0
436,Qasigiannguit,GL,2019-12-29 16:31:10,68.82,-51.19,17.6,67,75,8.05,light snow,0,0
437,Arbazh,RU,2019-12-29 16:31:10,57.68,48.31,1.9,85,0,4.74,clear sky,0,0
438,Lewiston,US,2019-12-29 16:31:10,44.1,-70.21,39.2,51,1,6.93,clear sky,0,0
439,Port Hardy,CA,2019-12-29 16:31:11,50.7,-127.42,44.6,87,90,21.92,overcast clouds,0,0
440,Erenhot,CN,2019-12-29 16:31:11,43.65,111.97,-2.92,79,100,17.85,overcast clouds,0,0
441,Merritt Island,US,2019-12-29 16:31:11,28.54,-80.67,79.0,78,75,13.87,broken clouds,0,0
442,Hameenlinna,FI,2019-12-29 16:31:11,61.0,24.46,37.99,100,90,14.99,light intensity shower rain,0,0
443,San Quintin,PH,2019-12-29 16:31:11,17.54,120.52,71.76,92,2,3.91,clear sky,0,0
444,Muli,CN,2019-12-29 16:31:12,28.08,109.56,46.06,89,33,1.45,scattered clouds,0,0
445,Kargasok,RU,2019-12-29 16:31:12,59.06,80.87,-8.97,95,100,5.39,overcast clouds,0,0
446,Emerald,AU,2019-12-29 16:31:12,-23.53,148.16,73.4,64,0,8.05,clear sky,0,0
447,Lamak,PH,2019-12-29 16:31:12,10.44,123.31,79.16,71,0,8.05,clear sky,0,0
448,Krasnovishersk,RU,2019-12-29 16:31:12,60.4,57.08,-3.44,86,18,2.06,few clouds,0,0
449,Kawalu,ID,2019-12-29 16:31:13,-7.38,108.21,72.27,94,100,1.63,overcast clouds,0,0
450,Lompoc,US,2019-12-29 16:31:11,34.64,-120.46,48.0,93,1,3.36,clear sky,0,0
451,Iranshahr,IR,2019-12-29 16:31:13,27.21,60.69,60.8,41,0,1.21,clear sky,0,0
452,Northam,AU,2019-12-29 16:31:13,-31.65,116.67,66.0,88,40,6.93,scattered clouds,0,0
453,Wilkie,CA,2019-12-29 16:31:14,52.41,-108.71,14.0,76,1,5.82,mist,0,0
454,Yerbogachen,RU,2019-12-29 16:31:14,61.28,108.01,-14.82,96,100,11.74,light snow,0,0.38
455,Vanimo,PG,2019-12-29 16:31:14,-2.67,141.3,82.83,76,100,12.73,overcast clouds,0,0
456,Takab,IR,2019-12-29 16:31:15,36.4,47.11,24.75,72,31,4.25,scattered clouds,0,0
457,Yashan,CN,2019-12-29 16:31:15,30.81,118.02,46.47,90,25,2.3,scattered clouds,0,0
458,Jamtara,IN,2019-12-29 16:31:15,23.95,86.82,55.4,82,0,11.41,mist,0,0
459,Jodar,ES,2019-12-29 16:31:15,37.84,-3.35,60.01,66,0,3.51,clear sky,0,0
460,Elliot,ZA,2019-12-29 16:31:16,-31.33,27.85,60.93,82,64,6.2,light rain,1.38,0
461,Plainview,US,2019-12-29 16:31:16,34.18,-101.71,35.01,38,90,14.99,overcast clouds,0,0
462,Faanui,PF,2019-12-29 16:31:16,-16.48,-151.75,80.85,75,100,9.42,light rain,0.31,0
463,Augustow,PL,2019-12-29 16:31:16,53.84,22.98,28.0,94,54,7.85,broken clouds,0,0
464,Angoche,MZ,2019-12-29 16:31:17,-16.23,39.91,79.16,89,100,3.13,light rain,0.25,0
465,Kangaatsiaq,GL,2019-12-29 16:31:17,68.31,-53.46,17.94,89,100,6.96,light snow,0,0.13
466,Uglegorsk,RU,2019-12-29 16:31:17,49.08,142.06,3.87,82,41,7.63,scattered clouds,0,0
467,Belyy Yar,RU,2019-12-29 16:31:18,53.6,91.39,-20.2,75,100,1.23,smoke,0,0
468,Kuliyapitiya,LK,2019-12-29 16:31:18,7.47,80.04,80.6,78,91,8.05,overcast clouds,0,0
469,Izazi,TZ,2019-12-29 16:31:18,-7.24,35.72,72.36,85,99,0.54,light rain,0.5,0
470,Hamilton,CA,2019-12-29 16:26:47,43.26,-79.87,39.0,93,90,18.34,moderate rain,0,0
471,Shache,CN,2019-12-29 16:26:21,38.42,77.24,23.04,53,100,2.3,overcast clouds,0,0
472,Dwarka,IN,2019-12-29 16:30:16,28.58,77.04,55.0,100,20,2.66,fog,0,0
473,Hongjiang,CN,2019-12-29 16:31:19,27.21,109.83,48.47,93,65,1.95,broken clouds,0,0
474,Sankheda,IN,2019-12-29 16:31:19,22.21,73.58,66.2,55,64,5.82,broken clouds,0,0
475,Aswan,EG,2019-12-29 16:31:20,24.09,32.9,66.2,25,0,5.82,clear sky,0,0
476,Cusuna,HN,2019-12-29 16:31:20,15.85,-85.23,82.51,76,65,11.52,light rain,0.19,0
477,Codrington,AU,2019-12-29 16:27:57,-28.95,153.24,69.8,87,3,6.93,clear sky,0,0
478,Yongan,CN,2019-12-29 16:31:20,39.7,113.69,1.04,86,66,6.76,broken clouds,0,0
479,Davila,PH,2019-12-29 16:31:21,18.47,120.58,77.0,94,40,2.24,scattered clouds,0,0
480,La Plaine,FR,2019-12-29 16:31:21,45.17,5.76,41.0,80,0,6.93,clear sky,0,0
481,Ulagan,RU,2019-12-29 16:31:21,50.63,87.96,6.12,57,99,5.14,overcast clouds,0,0
482,Arrifes,PT,2019-12-29 16:31:21,37.77,-25.7,62.6,63,20,14.99,few clouds,0,0
483,Kirakira,SB,2019-12-29 16:31:21,-10.46,161.92,75.92,87,1,4.92,clear sky,0,0
484,Yar-Sale,RU,2019-12-29 16:31:22,66.83,70.83,10.78,86,98,13.87,overcast clouds,0,0
485,Yining,CN,2019-12-29 16:31:22,29.04,114.56,46.54,93,74,1.54,broken clouds,0,0
486,Uwajima,JP,2019-12-29 16:31:22,33.22,132.57,56.68,94,100,9.33,moderate rain,6.81,0
487,Mbandaka,CD,2019-12-29 16:31:22,0.05,18.26,80.47,43,64,1.86,broken clouds,0,0
488,Faya,SA,2019-12-29 16:31:23,18.39,42.45,59.0,67,20,10.29,few clouds,0,0
489,Machalpur,IN,2019-12-29 16:31:23,24.13,76.3,52.5,37,33,5.37,scattered clouds,0,0
490,Cartagena,ES,2019-12-29 16:31:23,37.63,-1.0,59.0,77,20,4.7,few clouds,0,0
491,Goderich,CA,2019-12-29 16:31:24,43.74,-81.71,37.0,95,100,1.99,moderate rain,3.94,0
492,Tilichiki,RU,2019-12-29 16:31:24,60.47,166.1,-13.13,71,27,7.47,scattered clouds,0,0
493,Atasu,KZ,2019-12-29 16:31:24,48.68,71.64,21.16,94,98,12.91,light snow,0,0.31
494,Richards Bay,ZA,2019-12-29 16:31:24,-28.77,32.06,71.85,93,100,25.32,heavy intensity rain,17.06,0
495,Ca Mau,VN,2019-12-29 16:31:25,9.18,105.15,72.52,90,5,2.46,clear sky,0,0
496,Tonosho,JP,2019-12-29 16:31:25,34.48,134.18,48.99,100,75,4.7,light intensity shower rain,0,0
497,Bensonville,LR,2019-12-29 16:31:25,6.45,-10.61,89.6,75,40,6.93,scattered clouds,0,0
498,Puerto Rico,CO,2019-12-29 16:31:25,1.91,-75.15,87.46,55,4,3.6,light rain,0.75,0
499,Panjakent,UZ,2019-12-29 16:31:26,39.5,67.61,42.8,70,100,2.24,overcast clouds,0,0
500,Sucua,EC,2019-12-29 16:31:26,-2.46,-78.17,77.0,69,40,5.82,scattered clouds,0,0
501,Harper,US,2019-12-29 16:31:26,30.3,-99.24,57.0,29,1,17.22,clear sky,0,0
502,Wadi Maliz,TN,2019-12-29 16:31:27,36.47,8.55,53.6,50,40,6.93,scattered clouds,0,0
503,Mojo,ET,2019-12-29 16:31:27,8.59,39.12,60.8,48,40,11.41,scattered clouds,0,0
504,Kayes,ML,2019-12-29 16:31:27,14.44,-11.44,95.0,8,0,8.05,clear sky,0,0
505,Havoysund,NO,2019-12-29 16:29:44,71.0,24.66,35.6,93,75,33.33,shower sleet,0,0
506,Zhanaozen,KZ,2019-12-29 16:31:27,43.35,52.85,39.69,77,99,3.69,overcast clouds,0,0
507,Kalianget,ID,2019-12-29 16:31:28,-7.35,109.91,84.99,94,75,3.36,thunderstorm with light rain,0,0
508,Watsa,CD,2019-12-29 16:31:28,3.04,29.53,70.48,47,68,2.73,broken clouds,0,0
509,Singaparna,ID,2019-12-29 16:31:28,-7.35,108.11,72.27,94,100,1.63,overcast clouds,0,0
510,Hovd,NO,2019-12-29 16:31:28,63.83,10.7,51.01,93,75,14.99,broken clouds,0,0
511,Eldorado,BR,2019-12-29 16:31:29,-24.52,-48.11,89.17,49,90,6.2,overcast clouds,0,0
512,Talnakh,RU,2019-12-29 16:31:29,69.49,88.39,-23.8,67,85,17.9,overcast clouds,0,0
513,Ayabaca,PE,2019-12-29 16:31:29,-4.64,-79.72,71.37,74,100,4.16,light rain,2.75,0
514,Hirata,JP,2019-12-29 16:31:29,37.21,140.56,39.99,89,92,1.01,overcast clouds,0,0
515,Waddan,LY,2019-12-29 16:31:30,29.16,16.14,49.53,49,7,10.78,clear sky,0,0
516,Kudahuvadhoo,MV,2019-12-29 16:31:30,2.67,72.89,82.89,80,70,17.65,broken clouds,0,0
517,Eyrarbakki,IS,2019-12-29 16:31:30,63.86,-21.15,41.0,69,75,18.34,broken clouds,0,0
518,Valparaiso,US,2019-12-29 16:30:02,41.47,-87.06,60.8,100,90,11.41,overcast clouds,0,0
519,Zhezkazgan,KZ,2019-12-29 16:31:31,47.8,67.71,17.6,92,90,11.18,overcast clouds,0,0
520,Naze,NG,2019-12-29 16:31:31,5.43,7.07,95.0,44,90,2.24,overcast clouds,0,0
521,Painesville,US,2019-12-29 16:31:31,41.72,-81.25,52.0,81,90,9.17,light rain,0,0
522,Meulaboh,ID,2019-12-29 16:31:32,4.14,96.13,81.43,81,1,7.65,moderate rain,3.06,0
523,Yangjiang,CN,2019-12-29 16:31:32,21.85,111.96,71.01,57,39,2.06,scattered clouds,0,0
524,Asyut,EG,2019-12-29 16:31:32,27.18,31.19,64.4,36,0,4.7,clear sky,0,0
525,Sola,TZ,2019-12-29 16:31:32,-3.17,33.8,67.3,80,33,4.61,scattered clouds,0,0
526,Saint-Ambroise,CA,2019-12-29 16:31:32,48.56,-71.32,27.0,73,75,8.05,broken clouds,0,0
527,Saint-Francois,FR,2019-12-29 16:31:33,46.42,3.91,37.0,91,75,6.93,broken clouds,0,0
528,Batemans Bay,AU,2019-12-29 16:31:33,-35.71,150.18,68.0,95,64,4.61,broken clouds,0,0
529,Wenling,CN,2019-12-29 16:31:33,28.38,121.38,59.0,96,91,6.64,overcast clouds,0,0
530,Drumheller,CA,2019-12-29 16:31:27,51.47,-112.7,19.99,55,100,4.7,overcast clouds,0,0
531,Ponta Delgada,PT,2019-12-29 16:31:34,37.73,-25.67,62.6,63,20,14.99,few clouds,0,0
532,Xining,CN,2019-12-29 16:30:36,36.62,101.77,9.91,59,0,1.32,clear sky,0,0
533,Alta Floresta,BR,2019-12-29 16:31:34,-9.87,-56.08,87.8,66,75,4.7,broken clouds,0,0
534,Summerland,CA,2019-12-29 16:31:34,49.6,-119.67,30.99,79,75,3.36,broken clouds,0,0
535,Clinton,US,2019-12-29 16:31:34,41.28,-72.53,43.0,56,1,4.7,clear sky,0,0
536,Lovozero,RU,2019-12-29 16:31:35,68.01,35.02,34.7,90,74,11.99,light snow,0,0.12
537,Mocuba,MZ,2019-12-29 16:31:35,-16.84,36.99,75.96,89,90,3.96,overcast clouds,0,0
538,Kita,JP,2019-12-29 16:31:35,35.76,139.74,50.0,40,75,6.93,broken clouds,0,0
539,Anadyr,RU,2019-12-29 16:31:35,64.73,177.51,-27.0,74,3,8.95,fog,0,0
540,Oktyabrskiy,RU,2019-12-29 16:31:35,55.61,37.97,28.0,92,90,2.24,overcast clouds,0,0
541,Sao Felix Do Xingu,BR,2019-12-29 16:31:36,-6.64,-51.99,82.0,85,91,3.94,moderate rain,4.25,0
542,Victoria Point,AU,2019-12-29 16:31:36,-27.58,153.3,75.2,60,75,5.82,broken clouds,0,0
543,Muhos,FI,2019-12-29 16:31:36,64.81,26.0,35.6,93,90,10.29,overcast clouds,0,0
544,Batouri,CM,2019-12-29 16:31:36,4.44,14.36,78.96,23,25,3.53,scattered clouds,0,0
545,Thohoyandou,ZA,2019-12-29 16:31:37,-22.97,30.46,77.85,47,50,4.09,scattered clouds,0,0
546,Cururupu,BR,2019-12-29 16:31:37,-1.82,-44.87,86.02,61,89,7.52,light rain,1.5,0
547,Loiza,PR,2019-12-29 16:29:44,18.43,-65.88,84.2,70,40,12.75,shower rain,0,0
548,Biloela,AU,2019-12-29 16:31:37,-24.4,150.51,64.65,88,99,9.33,overcast clouds,0,0
549,Malangali,TZ,2019-12-29 16:31:37,-8.57,34.85,61.3,93,100,2.77,overcast clouds,0,0
550,Shangqiu,CN,2019-12-29 16:31:38,34.42,115.65,46.99,75,0,7.9,clear sky,0,0
551,Tablac,PH,2019-12-29 16:31:38,17.22,120.48,69.96,79,0,4.12,clear sky,0,0
552,Mae Sai,MM,2019-12-29 16:31:38,20.44,99.89,66.2,100,90,3.36,light rain,0,0
